[
    {
        "id": 1,
        "site_name": "Ben Lomond Spreading Grounds",
        "latitude": "34.109919",
        "longitude": "-117.915067",
        "county": 39618,
        "date": "2016-02-02T08:26:33.688880Z",
        "area": "41 Acres",
        "percolation": "30 CFS",
        "storage": "168.00",
        "units": "AF",
        "source": "LA Department of Public Works"
    },
    {
        "id": 2,
        "site_name": "Big Dalton Spreading Grounds",
        "latitude": "34.102657",
        "longitude": "-117.916001",
        "county": 39618,
        "date": "2016-02-02T08:28:23.678750Z",
        "area": "32 Acres",
        "percolation": "12 CFS",
        "storage": "12.00",
        "units": "AF",
        "source": "LA Department of Public Works"
    },
    {
        "id": 3,
        "site_name": "Branford Spreading Basin",
        "latitude": "34.264635",
        "longitude": "-118.381801",
        "county": 39618,
        "date": "2016-02-02T08:30:31.158699Z",
        "area": "19 Acres",
        "percolation": "1 CFS",
        "storage": "137.00",
        "units": "AF",
        "source": "LA Department of Public Works"
    },
    {
        "id": 5,
        "site_name": "Buena Vista Spreading Basin",
        "latitude": "34.174987",
        "longitude": "-117.989342",
        "county": 39618,
        "date": "2016-02-02T08:32:58.211416Z",
        "area": "16 Acres",
        "percolation": "6 CFS",
        "storage": "177.00",
        "units": "AF",
        "source": "LA Department of Public Works"
    },
    {
        "id": 6,
        "site_name": "DOMINGUEZ GAP SPREADING GROUNDS",
        "latitude": "33.835502",
        "longitude": "-118.198541",
        "county": 39618,
        "date": "2016-02-02T08:35:06.855786Z",
        "area": "78 Acres",
        "percolation": "146,000 CFS",
        "storage": "234.00",
        "units": "AF",
        "source": "LA Department of Public Works"
    },
    {
        "id": 7,
        "site_name": "EATON SPREADING BASIN",
        "latitude": "34.096969",
        "longitude": "-118.086528",
        "county": 39618,
        "date": "2016-02-02T08:36:26.156503Z",
        "area": "26 Acres",
        "percolation": "20 CFS",
        "storage": "284.00",
        "units": "AF",
        "source": "LA Department of Public Works"
    },
    {
        "id": 8,
        "site_name": "FORBES SPREADING GROUNDS",
        "latitude": "34.113095",
        "longitude": "-117.859940",
        "county": 39618,
        "date": "2016-02-02T08:37:33.059936Z",
        "area": "31 Acres",
        "percolation": "5 CFS",
        "storage": "87.00",
        "units": "AF",
        "source": "LA Department of Public Works"
    },
    {
        "id": 9,
        "site_name": "HANSEN SPREADING GROUNDS",
        "latitude": "34.293338",
        "longitude": "-118.190595",
        "county": 39618,
        "date": "2016-02-02T08:39:17.612246Z",
        "area": "273",
        "percolation": "150 CFS",
        "storage": "1409.00",
        "units": "AF",
        "source": "LA Department of Public Works"
    },
    {
        "id": 10,
        "site_name": "IRWINDALE / MANNING PIT SPREADING BASINS",
        "latitude": "34.129999",
        "longitude": "-118.090873",
        "county": 39618,
        "date": "2016-02-02T08:40:25.912526Z",
        "area": "92 Acres",
        "percolation": "60 CFS",
        "storage": "1134.00",
        "units": "AF",
        "source": "LA Department of Public Works"
    },
    {
        "id": 11,
        "site_name": "LITTLE DALTON SPREADING GROUNDS",
        "latitude": "34.138964",
        "longitude": "-117.871967",
        "county": 39618,
        "date": "2016-02-02T08:41:38.968289Z",
        "area": "19 Acres",
        "percolation": "15 CFS",
        "storage": "5.00",
        "units": "AF",
        "source": "LA Department of Public Works"
    },
    {
        "id": 12,
        "site_name": "LIVE OAK SPREADING GROUNDS",
        "latitude": "30.297981",
        "longitude": "-82.991088",
        "county": 39618,
        "date": "2016-02-02T08:42:46.363035Z",
        "area": "8 Acres",
        "percolation": "13 CFS",
        "storage": "12.00",
        "units": "AF",
        "source": "LA Department of Public Works"
    },
    {
        "id": 13,
        "site_name": "CITRUS SPREADING GROUNDS",
        "latitude": "34.150470",
        "longitude": "-117.846020",
        "county": 39618,
        "date": "2016-02-02T08:44:22.313585Z",
        "area": "34 Acres",
        "percolation": "28 CFS",
        "storage": "80.00",
        "units": "AF",
        "source": "LA Department of Public Works"
    },
    {
        "id": 14,
        "site_name": "SAN GABRIEL COASTAL SPREADING GROUNDS",
        "latitude": "34.206300",
        "longitude": "-117.862520",
        "county": 39618,
        "date": "2016-02-02T08:46:21.718676Z",
        "area": "224 Acres",
        "percolation": "75 CFS",
        "storage": "550.00",
        "units": "AF",
        "source": "LA Department of Public Works"
    },
    {
        "id": 15,
        "site_name": "SANTA FE SPREADING GROUNDS",
        "latitude": "34.224200",
        "longitude": "-117.864000",
        "county": 39618,
        "date": "2016-02-02T08:47:51.968373Z",
        "area": "506 Acres",
        "percolation": "400 CFS",
        "storage": "540.00",
        "units": "AF",
        "source": "LA Department of Public Works"
    },
    {
        "id": 16,
        "site_name": "PECK ROAD SPREADING BASIN",
        "latitude": "34.194780",
        "longitude": "-118.056690",
        "county": 39618,
        "date": "2016-02-02T08:49:23.276276Z",
        "area": "262 Acres",
        "percolation": "25 CFS",
        "storage": "3347.00",
        "units": "AF",
        "source": "LA Department of Public Works"
    },
    {
        "id": 17,
        "site_name": "WALNUT SPREADING BASIN",
        "latitude": "34.085800",
        "longitude": "-117.811700",
        "county": 39618,
        "date": "2016-02-02T08:50:45.127385Z",
        "area": "24 Acres",
        "percolation": "5 CFS",
        "storage": "170.00",
        "units": "AF",
        "source": "LA Department of Public Works"
    }
]